[
  {
    "id": "1e85f851-68ba-4f1d-a866-d0f87e2353cc",
    "name": "Chic Hair Studio",
    "street": "789 Elm Street",
    "city": "Chicago",
    "state": "IL",
    "zip": "60601",
    "latitude": 41.8781,
    "longitude": -87.6298,
    "phone": "312-555-7890",
    "email": "chichair@example.com",
    "rating": false,
    "rate":"rate.svg",
    "country": "Hoa Kỳ",
    "countReview": 0,
    "star": 0,
    "address": "789 Elm Street Chicago, IL 60601, Hoa Kỳ",
    "geog": null,
    "status": 1,
    "times": "10 giờ tối",
    "avatarimg": [
      "https://dev.nail360.info/images/Rectangle 89.png"
    ],
    "thumbnail": "thumbnail.svg"
  },
  {
    "id": "1e85f851-68ba-4f1f-a845-d0wwdc7e43353cc",
    "name": "Lantern Hair & Nails",
    "street": "789 Elm Street",
    "city": "Washington",
    "state": "IL",
    "zip": "60601",
    "latitude": 10.870242754412788,
    "longitude": 106.80299148868014,
    "phone": "312-555-7890",
    "email": "chichair@example.com",
    "rating": false,
    "rate":"rate.svg",
    "country": "Hoa Kỳ",
    "countReview": 0,
    "star": 0,
    "address": "789 Elm Street Washington, Hoa Kỳ",
    "geog": null,
    "status": 1,
    "times": "10 giờ tối",
    "avatarimg": [
      "https://dev.nail360.info/images/Rectangle 89.png"
    ],
    "thumbnail": "thumbnail2.svg"
  },
  {
    "id": "1e85f851-68ba-4f1d-a866-d0ccdcww353cc",
    "name": "Lathersalonaspen",
    "street": "789 Elm Street",
    "city": "Chicago",
    "state": "IL",
    "zip": "60601",
    "latitude": 46.8781,
    "longitude": -37.6298,
    "phone": "312-555-7890",
    "email": "chichair@example.com",
    "rating": false,
    "rate":"rate.svg",
    "country": "Hoa Kỳ",
    "countReview": 0,
    "star": 0,
    "address": "Hazard Ave Westminster, CA - ( 5 miles drive )",
    "geog": null,
    "status": 1,
    "times": "10 giờ tối",
    "avatarimg": [
      "https://dev.nail360.info/images/Rectangle 89.png"
    ],
    "thumbnail": "thumbnail.svg"
  },
  {
    "id": "1e85f851-68ba-4f1d-a866-d0f80201282353cc",
    "name": "Coco Nails art",
    "street": "789 Elm Street",
    "city": "Chicago",
    "state": "IL",
    "zip": "60601",
    "latitude": 49.8781,
    "longitude": -27.6298,
    "phone": "312-555-7890",
    "email": "chichair@example.com",
    "rating": false,
    "rate":"rate.svg",
    "country": "Hoa Kỳ",
    "countReview": 0,
    "star": 0,
    "address": "Hazard Ave Westminster, CA - ( 5 miles drive )",
    "geog": null,
    "status": 1,
    "times": "10 giờ tối",
    "avatarimg": [
      "https://dev.nail360.info/images/Rectangle 89.png"
    ],
    "thumbnail": "thumbnail2.svg"
  },
  {
    "id": "1e85f851-68ba-4f1d-a866-d0fdb2n2s353cc",
    "name": "Lacquer Gallery",
    "street": "789 Elm Street",
    "city": "Chicago",
    "state": "IL",
    "zip": "60601",
    "latitude": 21.8781,
    "longitude": -106.6298,
    "phone": "312-555-7890",
    "email": "chichair@example.com",
    "rating": false,
    "rate":"rate.svg",
    "country": "Hoa Kỳ",
    "countReview": 0,
    "star": 0,
    "address": "Hazard Ave Westminster, CA - ( 5 miles drive )",
    "geog": null,
    "status": 1,
    "times": "10 giờ tối",
    "avatarimg": [
      "https://dev.nail360.info/images/Rectangle 89.png"
    ],
    "thumbnail": [
      "https://cdn.pixabay.com/photo/2020/08/30/14/57/beautician-5529805_640.jpg"
    ]
  },
  {
    "id": "1e85f851-68ba-4f1d-a866-d0fh732h3d353cc",
    "name": "The Nail Lounge",
    "street": "789 Elm Street",
    "city": "Chicago",
    "state": "IL",
    "zip": "60601",
    "latitude": 43.8781,
    "longitude": -67.6298,
    "phone": "312-555-7890",
    "email": "chichair@example.com",
    "rating": false,
    "rate":"rate.svg",
    "country": "Hoa Kỳ",
    "countReview": 0,
    "star": 0,
    "address": "Hazard Ave Westminster, CA - ( 5 miles drive )",
    "geog": null,
    "status": 1,
    "times": "10 giờ tối",
    "avatarimg": [
      "https://dev.nail360.info/images/Rectangle 89.png"
    ],
    "thumbnail": [
      "https://cdn.pixabay.com/photo/2017/08/28/06/36/nail-art-2688565_640.jpg"
    ]
  },
  {
    "id": "1e85f2244851-68ba-4f1d-a866-d0f87e2353cc",
    "name": "Benitoite Nails & Spa",
    "street": "789 Elm Street",
    "city": "Chicago",
    "state": "IL",
    "zip": "60601",
    "latitude": 42.8781,
    "longitude": -88.6298,
    "phone": "312-555-7890",
    "email": "chichair@example.com",
    "rating": false,
    "rate":"rate.svg",
    "country": "Hoa Kỳ",
    "countReview": 0,
    "star": 0,
    "address": "Hazard Ave Westminster, CA - ( 5 miles drive )",
    "geog": null,
    "status": 1,
    "times": "10 giờ tối",
    "avatarimg": [
      "https://dev.nail360.info/images/Rectangle 89.png"
    ],
    "thumbnail": "thumbnail.svg"
  },
  {
    "id": "1e85f851-65454a-4f1d-a866-d0f87e2353cc",
    "name": "Sarana Nails & Spa",
    "street": "789 Elm Street",
    "city": "Chicago",
    "state": "IL",
    "zip": "60601",
    "latitude": 43.8781,
    "longitude": -88.6298,
    "phone": "312-555-7890",
    "email": "chichair@example.com",
    "rating": false,
    "rate":"rate.svg",
    "country": "Hoa Kỳ",
    "countReview": 0,
    "star": 0,
    "address": "Hazard Ave Westminster, CA - ( 5 miles drive )",
    "geog": null,
    "status": 1,
    "times": "10 giờ tối",
    "avatarimg": [
      "https://cdn.pixabay.com/photo/2023/08/22/08/59/road-8205773_640.jpg"
    ],
    "thumbnail": "thumbnail2.svg"
  },
  {
    "id": "1e85f851-68ba-4f122-a866-d0f87e2353cc",
    "name": "Nail Hello VietNam",
    "street": "789 Elm Street",
    "city": "Chicago",
    "state": "IL",
    "zip": "60601",
    "latitude": 44.8781,
    "longitude": -88.6298,
    "phone": "312-555-7890",
    "email": "chichair@example.com",
    "rating": false,
    "rate":"rate.svg",
    "country": "Hoa Kỳ",
    "countReview": 0,
    "star": 0,
    "address": "Ha Noi, Viet Nam",
    "geog": null,
    "status": 1,
    "times": "10 giờ tối",
    "avatarimg": [
      "https://dev.nail360.info/images/Rectangle 89.png"
    ],
    "thumbnail": "thumbnail.svg"
  },
  {
    "id": "2e85f851-68ba-4f122-a866-d0f87e2353cc",
    "name": "Nail Salon XYZ",
    "street": "123 Oak Street",
    "city": "Chicago",
    "state": "IL",
    "zip": "60601",
    "latitude": 41.8781,
    "longitude": -87.6298,
    "phone": "312-555-1234",
    "email": "xyzsalon@example.com",
    "rating": false,
    "rate":"rate.svg",
    "country": "Hoa Kỳ",
    "countReview": 0,
    "star": 0,
    "address": "Ho Chi Minh City, Vietnam",
    "geog": null,
    "status": 1,
    "times": "9 AM - 7 PM",
    "avatarimg": [
      "https://cdn.pixabay.com/photo/2023/09/09/11/55/cat-8243079_640.jpg"
    ],
    "thumbnail": "thumbnail.svg"
  },
  {
    "id": "2e85f851-68ba-4f122-a866-d0fewwcv53cc",
    "name": "Nail Salon ABC",
    "street": "123 Oak Street",
    "city": "Chicago",
    "state": "IL",
    "zip": "60601",
    "latitude": 41.8781,
    "longitude": -87.6298,
    "phone": "312-555-1234",
    "email": "xyzsalon@example.com",
    "rating": false,
    "rate":"rate.svg",
    "country": "Hoa Kỳ",
    "countReview": 0,
    "star": 0,
    "address": "Ho Chi Minh City, Vietnam",
    "geog": null,
    "status": 1,
    "times": "9 AM - 7 PM",
    "avatarimg": [
      "https://cdn.pixabay.com/photo/2023/08/17/14/44/rabbit-8196781_640.png"
    ],
    "thumbnail": "thumbnail.svg"
  },
  {
    "id": "2e85f851-68ba-4f122-a866-d0f82wdwdcc",
    "name": "Nail Salon Về Bên Nhau",
    "street": "123 Oak Street",
    "city": "Chicago",
    "state": "IL",
    "zip": "60601",
    "latitude": 41.8781,
    "longitude": -87.6298,
    "phone": "312-555-1234",
    "email": "xyzsalon@example.com",
    "rating": false,
    "rate":"rate.svg",
    "country": "Hoa Kỳ",
    "countReview": 0,
    "star": 0,
    "address": "Ho Chi Minh City, Vietnam",
    "geog": null,
    "status": 1,
    "times": "9 AM - 7 PM",
    "avatarimg": [
      "https://cdn.pixabay.com/photo/2023/09/10/05/40/motmot-8244307_640.jpg"
    ],
    "thumbnail": "thumbnail.svg"
  },
  {
    "id": "2e85f851-68ba-4f122-a866-d0f832ubvfcc",
    "name": "Nail Salon India",
    "street": "123 Oak Street",
    "city": "Chicago",
    "state": "IL",
    "zip": "60601",
    "latitude": 41.8781,
    "longitude": -87.6298,
    "phone": "312-555-1234",
    "email": "xyzsalon@example.com",
    "rating": false,
    "rate":"rate.svg",
    "country": "Hoa Kỳ",
    "countReview": 0,
    "star": 0,
    "address": "India",
    "geog": null,
    "status": 1,
    "times": "9 AM - 7 PM",
    "avatarimg": [
      "https://cdn.pixabay.com/photo/2023/06/11/16/07/switzerland-8056381_640.jpg"
    ],
    "thumbnail": "thumbnail.svg"
  }
]
